{"events":[{"lon":105.38,"lat":11.77,"type":"FL","level":"RED","name":"Flood in Cambodia","country":"Cambodia","severity":"Magnitude 7.16","from":"2001-08-15","to":"2001-11-19","eventid":1781},{"lon":-80.2,"lat":22.34,"type":"FL","level":"RED","name":"Flood in Nicaragua ","country":"Nicaragua ","severity":"Magnitude 6.17","from":"2001-10-26","to":"2001-11-15","eventid":1818},{"lon":3.07,"lat":36.68,"type":"FL","level":"ORANGE","name":"Flood in Algeria ","country":"Algeria ","severity":"Magnitude 3.99","from":"2001-11-10","to":"2001-11-14","eventid":1824},{"lon":124.71,"lat":9.18,"type":"FL","level":"ORANGE","name":"Flood in Philippines","country":"Philippines","severity":"Magnitude 3.39","from":"2001-11-06","to":"2001-11-09","eventid":1822},{"lon":79.05,"lat":14.84,"type":"FL","level":"ORANGE","name":"Flood in India ","country":"India ","severity":"Magnitude 5.72","from":"2001-10-16","to":"2001-10-21","eventid":1811},{"lon":84.87,"lat":26.53,"type":"FL","level":"ORANGE","name":"Flood in India","country":"India","severity":"Magnitude 5.73","from":"2001-09-07","to":"2001-09-24","eventid":1791},{"lon":104.59,"lat":31.04,"type":"FL","level":"ORANGE","name":"Flood in China","country":"China","severity":"Magnitude 4.77","from":"2001-09-19","to":"2001-09-22","eventid":1797},{"lon":83.05,"lat":26.76,"type":"FL","level":"ORANGE","name":"Flood in India ","country":"India ","severity":"Magnitude 5.91","from":"2001-08-20","to":"2001-09-11","eventid":1789},{"lon":8.7,"lat":11.73,"type":"FL","level":"ORANGE","name":"Flood in Nigeria ","country":"Nigeria ","severity":"Magnitude 5.41","from":"2001-08-27","to":"2001-09-04","eventid":1786},{"lon":105.95,"lat":18.36,"type":"FL","level":"ORANGE","name":"Flood in Thailand","country":"Thailand","severity":"Magnitude 4.82","from":"2001-08-10","to":"2001-08-25","eventid":1776},{"lon":56.91,"lat":36.87,"type":"FL","level":"ORANGE","name":"Flood in Iran ","country":"Iran ","severity":"Magnitude 5.67","from":"2001-08-10","to":"2001-08-12","eventid":1775},{"lon":84.8,"lat":21.06,"type":"FL","level":"RED","name":"Flood in India ","country":"India ","severity":"Magnitude 6.85","from":"2001-07-08","to":"2001-08-10","eventid":1747},{"lon":97.75,"lat":0.82,"type":"FL","level":"ORANGE","name":"Flood in Indonesia","country":"Indonesia","severity":"Magnitude 3.70","from":"2001-07-31","to":"2001-08-01","eventid":1765},{"lon":89.57,"lat":25.93,"type":"FL","level":"RED","name":"Flood in Northern Bangladesh and Eastern India","country":"Northern Bangladesh and Eastern India","severity":"Magnitude 6.80","from":"2001-07-31","to":"2001-07-31","eventid":1766},{"lon":73.26,"lat":34.99,"type":"FL","level":"ORANGE","name":"Flood in Pakistan ","country":"Pakistan ","severity":"Magnitude 5.65","from":"2001-07-22","to":"2001-07-25","eventid":1757},{"lon":111,"lat":22.91,"type":"FL","level":"RED","name":"Flood in Philippines","country":"Philippines","severity":"Magnitude 6.89","from":"2001-07-01","to":"2001-07-19","eventid":1743},{"lon":-0.29,"lat":5.67,"type":"FL","level":"ORANGE","name":"Flood in Ghana ","country":"Ghana ","severity":"Magnitude 3.22","from":"2001-06-27","to":"2001-06-30","eventid":1740},{"lon":92.01,"lat":24.45,"type":"FL","level":"RED","name":"Flood in India","country":"India","severity":"Magnitude 5.50","from":"2001-06-05","to":"2001-06-22","eventid":1731},{"lon":111.65,"lat":22.21,"type":"FL","level":"ORANGE","name":"Flood in China ","country":"China ","severity":"Magnitude 5.36","from":"2001-06-06","to":"2001-06-17","eventid":1732},{"lon":33.56,"lat":-16.2,"type":"FL","level":"ORANGE","name":"Flood in Mozambique","country":"Mozambique","severity":"Magnitude 7.37","from":"2001-01-01","to":"2001-04-27","eventid":1683},{"lon":-67.15,"lat":-14.91,"type":"FL","level":"ORANGE","name":"Flood in Bolivia","country":"Bolivia","severity":"Magnitude 6.94","from":"2001-01-01","to":"2001-03-22","eventid":1689},{"lon":22.64,"lat":47.93,"type":"FL","level":"ORANGE","name":"Flood in Germany","country":"Germany","severity":"Magnitude 5.93","from":"2001-03-04","to":"2001-03-17","eventid":1699},{"lon":-63.95,"lat":-19.79,"type":"FL","level":"ORANGE","name":"Flood in Bolivia ","country":"Bolivia ","severity":"Magnitude 3.66","from":"2001-02-16","to":"2001-02-22","eventid":1695},{"lon":125.84,"lat":8.36,"type":"FL","level":"ORANGE","name":"Flood in Philippines","country":"Philippines","severity":"Magnitude 4.38","from":"2001-02-16","to":"2001-02-19","eventid":1694},{"lon":112.07,"lat":2.39,"type":"FL","level":"ORANGE","name":"Flood in Indonesia","country":"Indonesia","severity":"Magnitude 5.83","from":"2001-02-04","to":"2001-02-18","eventid":1693}]}