{"events":[{"lon":80.99,"lat":8.47,"type":"FL","level":"ORANGE","name":"Flood in Sri Lanka","country":"Sri Lanka","severity":"Magnitude 4.85","from":"2002-12-16","to":"2002-12-20","eventid":2105},{"lon":97.44,"lat":3.11,"type":"FL","level":"ORANGE","name":"Flood in Indonesia","country":"Indonesia","severity":"Magnitude 5.71","from":"2002-11-19","to":"2002-12-03","eventid":2095},{"lon":105.25,"lat":10.5,"type":"FL","level":"ORANGE","name":"Flood in Vietnam","country":"Vietnam","severity":"Magnitude 6.82","from":"2002-07-15","to":"2002-12-02","eventid":1991},{"lon":103.53,"lat":16.77,"type":"FL","level":"ORANGE","name":"Flood in Thailand","country":"Thailand","severity":"Magnitude 7.88","from":"2002-08-18","to":"2002-11-26","eventid":2039},{"lon":-83.98,"lat":22.38,"type":"FL","level":"ORANGE","name":"Flood in USA","country":"USA","severity":"Magnitude 5.26","from":"2002-09-29","to":"2002-10-07","eventid":2064},{"lon":105.17,"lat":18.58,"type":"FL","level":"ORANGE","name":"Flood in Vietnam","country":"Vietnam","severity":"Magnitude 5.64","from":"2002-09-20","to":"2002-09-30","eventid":2059},{"lon":-88.08,"lat":20.74,"type":"FL","level":"ORANGE","name":"Flood in Nicaragua","country":"Nicaragua","severity":"Magnitude 5.64","from":"2002-09-18","to":"2002-09-26","eventid":2058},{"lon":98.36,"lat":17.16,"type":"FL","level":"ORANGE","name":"Flood in Thailand","country":"Thailand","severity":"Magnitude 6.26","from":"2002-08-17","to":"2002-09-20","eventid":2037},{"lon":128.62,"lat":35.44,"type":"FL","level":"ORANGE","name":"Flood in South Korea","country":"South Korea","severity":"Magnitude 4.68","from":"2002-08-31","to":"2002-09-03","eventid":2045},{"lon":112.82,"lat":26.78,"type":"FL","level":"ORANGE","name":"Flood in China","country":"China","severity":"Magnitude 6.34","from":"2002-08-06","to":"2002-08-28","eventid":2023},{"lon":13.03,"lat":48.57,"type":"FL","level":"ORANGE","name":"Flood in Germany","country":"Germany","severity":"Magnitude 7.05","from":"2002-08-07","to":"2002-08-28","eventid":2024},{"lon":89.27,"lat":25.84,"type":"FL","level":"RED","name":"Flood in India","country":"India","severity":"Magnitude 7.28","from":"2002-06-21","to":"2002-08-28","eventid":1974},{"lon":104.68,"lat":22.56,"type":"FL","level":"ORANGE","name":"Flood in Vietnam","country":"Vietnam","severity":"Magnitude 5.96","from":"2002-08-14","to":"2002-08-22","eventid":2035},{"lon":99.44,"lat":25.57,"type":"FL","level":"ORANGE","name":"Flood in China","country":"China","severity":"Magnitude 5.08","from":"2002-08-14","to":"2002-08-20","eventid":2034},{"lon":85.31,"lat":27.7,"type":"FL","level":"ORANGE","name":"Flood in Nepal","country":"Nepal","severity":"Magnitude 5.59","from":"2002-07-21","to":"2002-08-15","eventid":1999},{"lon":110.7,"lat":25.02,"type":"FL","level":"ORANGE","name":"Flood in China","country":"China","severity":"Magnitude 6.16","from":"2002-06-29","to":"2002-07-06","eventid":1973},{"lon":73.66,"lat":20.87,"type":"FL","level":"ORANGE","name":"Flood in India","country":"India","severity":"Magnitude 6.14","from":"2002-06-26","to":"2002-07-03","eventid":1969},{"lon":43.26,"lat":43.99,"type":"FL","level":"ORANGE","name":"Flood in Russia","country":"Russia","severity":"Magnitude 6.77","from":"2002-06-19","to":"2002-07-01","eventid":1962},{"lon":116.52,"lat":27.85,"type":"FL","level":"ORANGE","name":"Flood in China","country":"China","severity":"Magnitude 5.21","from":"2002-06-13","to":"2002-06-24","eventid":1958},{"lon":108.51,"lat":33.21,"type":"FL","level":"ORANGE","name":"Flood in China","country":"China","severity":"Magnitude 6.74","from":"2002-06-08","to":"2002-06-18","eventid":1944},{"lon":-74.04,"lat":1.79,"type":"FL","level":"ORANGE","name":"Flood in Columbia","country":"Columbia","severity":"Magnitude 6.57","from":"2002-06-04","to":"2002-06-13","eventid":1936},{"lon":33.54,"lat":-0.08,"type":"FL","level":"ORANGE","name":"Flood in Africa","country":"Africa","severity":"Magnitude 7.87","from":"2002-04-26","to":"2002-05-28","eventid":1917},{"lon":112.79,"lat":-7.33,"type":"FL","level":"ORANGE","name":"Flood in Indonesia","country":"Indonesia","severity":"Magnitude 6.14","from":"2002-01-27","to":"2002-02-12","eventid":1870},{"lon":-14.64,"lat":15.55,"type":"FL","level":"ORANGE","name":"Flood in Senegal","country":"Senegal","severity":"Magnitude 5.40","from":"2002-01-09","to":"2002-01-12","eventid":1866},{"lon":125.83,"lat":8.25,"type":"FL","level":"ORANGE","name":"Flood in Phillipines","country":"Phillipines","severity":"Magnitude 4.73","from":"2002-01-04","to":"2002-01-07","eventid":1858}]}