{"events":[{"lon":81.27,"lat":8.02,"type":"FL","level":"ORANGE","name":"Flood in Sri Lanka","country":"Sri Lanka","severity":"Magnitude 4.67","from":"2009-12-14","to":"2009-12-14","eventid":3582},{"lon":40.23,"lat":21.24,"type":"FL","level":"ORANGE","name":"Flood in Saudi Arabia","country":"Saudi Arabia","severity":"Magnitude 5.54","from":"2009-11-24","to":"2009-11-24","eventid":3579},{"lon":-89,"lat":13.77,"type":"FL","level":"ORANGE","name":"Flood in El Salvador","country":"El Salvador","severity":"Magnitude 4.52","from":"2009-11-07","to":"2009-11-07","eventid":3563},{"lon":-91.05,"lat":18.48,"type":"FL","level":"ORANGE","name":"Flood in Mexico","country":"Mexico","severity":"Magnitude 5.90","from":"2009-11-01","to":"2009-11-01","eventid":3562},{"lon":121.42,"lat":17.57,"type":"FL","level":"ORANGE","name":"Flood in Philippines","country":"Philippines","severity":"Magnitude 6.04","from":"2009-10-02","to":"2009-10-02","eventid":3552},{"lon":107.98,"lat":14.9,"type":"FL","level":"ORANGE","name":"Flood in Viet Nam","country":"Viet Nam","severity":"Magnitude 5.59","from":"2009-09-28","to":"2009-09-28","eventid":3548},{"lon":78.23,"lat":15.71,"type":"FL","level":"ORANGE","name":"Flood in India","country":"India","severity":"Magnitude 7.05","from":"2009-09-25","to":"2009-09-25","eventid":3551},{"lon":120.75,"lat":14.87,"type":"FL","level":"ORANGE","name":"Flood in Philippines","country":"Philippines","severity":"Magnitude 5.55","from":"2009-09-25","to":"2009-09-25","eventid":3547},{"lon":2.94,"lat":16.45,"type":"FL","level":"ORANGE","name":"Flood in China","country":"China","severity":"Magnitude 7.38","from":"2009-08-28","to":"2009-08-28","eventid":3534},{"lon":94.14,"lat":26.82,"type":"FL","level":"ORANGE","name":"Flood in India","country":"India","severity":"Magnitude 5.86","from":"2009-08-18","to":"2009-08-18","eventid":3530},{"lon":32.6,"lat":15.98,"type":"FL","level":"ORANGE","name":"Flood in Sudan","country":"Sudan","severity":"Magnitude 5.62","from":"2009-08-16","to":"2009-08-16","eventid":3533},{"lon":80.75,"lat":27.63,"type":"FL","level":"RED","name":"Flood in India","country":"India","severity":"Magnitude 6.04","from":"2009-08-15","to":"2009-08-15","eventid":3529},{"lon":105.16,"lat":26.62,"type":"FL","level":"ORANGE","name":"Flood in Mauritania","country":"Mauritania","severity":"Magnitude 6.29","from":"2009-08-10","to":"2009-08-10","eventid":3535},{"lon":121.01,"lat":24.29,"type":"FL","level":"RED","name":"Flood in Taiwan","country":"Taiwan","severity":"Magnitude 5.30","from":"2009-08-09","to":"2009-08-09","eventid":3522},{"lon":121.44,"lat":17.87,"type":"FL","level":"ORANGE","name":"Flood in Philippines","country":"Philippines","severity":"Magnitude 4.87","from":"2009-08-07","to":"2009-08-07","eventid":3520},{"lon":125.37,"lat":7.65,"type":"FL","level":"ORANGE","name":"Flood in Philippines","country":"Philippines","severity":"Magnitude 5.79","from":"2009-07-25","to":"2009-07-25","eventid":3518},{"lon":89.09,"lat":25.26,"type":"FL","level":"ORANGE","name":"Flood in Viet Nam","country":"Viet Nam","severity":"Magnitude 5.29","from":"2009-07-03","to":"2009-07-03","eventid":3495},{"lon":84.77,"lat":20.22,"type":"FL","level":"ORANGE","name":"Flood in India","country":"India","severity":"Magnitude 5.78","from":"2009-07-01","to":"2009-07-01","eventid":3497},{"lon":112.71,"lat":25.31,"type":"FL","level":"ORANGE","name":"Flood in China","country":"China","severity":"Magnitude 6.69","from":"2009-07-01","to":"2009-07-01","eventid":3498},{"lon":-88.64,"lat":13.42,"type":"FL","level":"ORANGE","name":"Flood in China","country":"China","severity":"Magnitude 5.71","from":"2009-06-19","to":"2009-06-19","eventid":3490},{"lon":-0.1,"lat":5.73,"type":"FL","level":"ORANGE","name":"Flood in Bangladesh","country":"Bangladesh","severity":"Magnitude 4.45","from":"2009-05-25","to":"2009-05-25","eventid":3486},{"lon":-142.3,"lat":65.44,"type":"FL","level":"ORANGE","name":"Flood in Brazil","country":"Brazil","severity":"Magnitude 7.35","from":"2009-04-22","to":"2009-04-22","eventid":3476},{"lon":151.35,"lat":-32.46,"type":"FL","level":"ORANGE","name":"Flood in Zambia","country":"Zambia","severity":"Magnitude 6.82","from":"2009-02-27","to":"2009-02-27","eventid":3468},{"lon":143.14,"lat":-17.13,"type":"FL","level":"ORANGE","name":"Flood in Philippines","country":"Philippines","severity":"Magnitude 6.93","from":"2009-01-03","to":"2009-01-03","eventid":3428},{"lon":119.2,"lat":27.3,"type":"TC","level":"Orange","name":"Tropical Cyclone MORAKOT-09","country":"","severity":"Tropical Storm (maximum wind speed of 157 km/h)","from":"2009-08-04","to":"2009-08-09","eventid":10421}]}