{"events":[{"lon":68.78,"lat":28.04,"type":"FL","level":"ORANGE","name":"Flood in Pakistan","country":"Pakistan","severity":"Magnitude 6.24","from":"2012-09-10","to":"2012-10-29","eventid":3984},{"lon":6.34,"lat":5.5,"type":"FL","level":"ORANGE","name":"Flood in Nigeria","country":"Nigeria","severity":"Magnitude 6.05","from":"2012-09-15","to":"2012-10-29","eventid":3988},{"lon":105.5,"lat":19.06,"type":"FL","level":"ORANGE","name":"Flood in Viet Nam","country":"Viet Nam","severity":"Magnitude 6.28","from":"2012-10-24","to":"2012-10-29","eventid":4000},{"lon":93.64,"lat":26.8,"type":"FL","level":"RED","name":"Flood in India","country":"India","severity":"Magnitude 6.36","from":"2012-09-19","to":"2012-10-15","eventid":3987},{"lon":12.11,"lat":9.3,"type":"FL","level":"ORANGE","name":"Flood in Nigeria","country":"Nigeria","severity":"Magnitude 6.68","from":"2012-08-25","to":"2012-09-26","eventid":3976},{"lon":3.88,"lat":14.61,"type":"FL","level":"ORANGE","name":"Flood in Niger","country":"Niger","severity":"Magnitude 6.58","from":"2012-08-06","to":"2012-09-07","eventid":3967},{"lon":30.22,"lat":9.69,"type":"FL","level":"ORANGE","name":"Flood in South Sudan","country":"South Sudan","severity":"Magnitude 7.30","from":"2012-08-01","to":"2012-08-29","eventid":3968},{"lon":97.85,"lat":16.59,"type":"FL","level":"ORANGE","name":"Flood in Myanmar","country":"Myanmar","severity":"Magnitude 7.00","from":"2012-07-15","to":"2012-08-29","eventid":3970},{"lon":126.03,"lat":38.78,"type":"FL","level":"ORANGE","name":"Flood in North Korea","country":"North Korea","severity":"Magnitude 6.08","from":"2012-07-20","to":"2012-08-06","eventid":3955},{"lon":122.59,"lat":40.52,"type":"FL","level":"RED","name":"Flood in China","country":"China","severity":"Magnitude 4.88","from":"2012-08-03","to":"2012-08-06","eventid":3963},{"lon":113.04,"lat":31.41,"type":"FL","level":"ORANGE","name":"Flood in China","country":"China","severity":"Magnitude 6.37","from":"2012-07-09","to":"2012-07-25","eventid":3949},{"lon":38.54,"lat":44.86,"type":"FL","level":"ORANGE","name":"Flood in Russia","country":"Russia","severity":"Magnitude 5.61","from":"2012-07-06","to":"2012-07-16","eventid":3943},{"lon":92.44,"lat":26.57,"type":"FL","level":"ORANGE","name":"Flood in India","country":"India","severity":"Magnitude 6.25","from":"2012-06-06","to":"2012-07-16","eventid":3934},{"lon":92.1,"lat":22.17,"type":"FL","level":"ORANGE","name":"Flood in Bangladesh","country":"Bangladesh","severity":"Magnitude 5.11","from":"2012-06-24","to":"2012-07-02","eventid":3939},{"lon":106.94,"lat":33.45,"type":"FL","level":"ORANGE","name":"Flood in China","country":"China","severity":"Magnitude 7.64","from":"2012-06-22","to":"2012-07-02","eventid":3942},{"lon":106.49,"lat":32.45,"type":"FL","level":"ORANGE","name":"Flood in China","country":"China","severity":"Magnitude 7.15","from":"2012-05-08","to":"2012-05-16","eventid":3926},{"lon":-67.99,"lat":-10.49,"type":"FL","level":"ORANGE","name":"Flood in Brazil","country":"Brazil","severity":"Magnitude 7.09","from":"2012-02-20","to":"2012-03-26","eventid":3903},{"lon":34.07,"lat":-21.45,"type":"FL","level":"ORANGE","name":"Flood in Mozambique","country":"Mozambique","severity":"Magnitude 7.07","from":"2012-01-17","to":"2012-02-14","eventid":3892},{"lon":102.82,"lat":17.04,"type":"FL","level":"ORANGE","name":"Flood in Thailand","country":"Thailand","severity":"Magnitude 7.49","from":"2011-08-05","to":"2012-01-09","eventid":3850},{"lon":148.42,"lat":-5.53,"type":"VO","level":"Orange","name":"Eruption  Langila","country":"New Britain-SW Pac","severity":"","from":"2012-12-05","to":"2012-12-05","eventid":79},{"lon":124.73,"lat":1.11,"type":"VO","level":"Red","name":"Eruption  Soputan","country":"Sulawesi-Indonesia","severity":"","from":"2012-09-19","to":"2012-09-19","eventid":170},{"lon":105.42,"lat":-6.1,"type":"VO","level":"Orange","name":"Eruption  Krakatau","country":"Indonesia","severity":"","from":"2012-09-04","to":"2012-09-04","eventid":123},{"lon":103.13,"lat":-4.03,"type":"VO","level":"Red","name":"Eruption  Dempo","country":"Sumatra","severity":"","from":"2012-08-18","to":"2012-08-18","eventid":120},{"lon":101.26,"lat":-1.7,"type":"VO","level":"Red","name":"Eruption  Kerinci","country":"Sumatra","severity":"","from":"2012-07-25","to":"2012-07-25","eventid":117},{"lon":150.52,"lat":-5.58,"type":"VO","level":"Orange","name":"Eruption  Pago","country":"New Britain-SW Pac","severity":"","from":"2012-07-10","to":"2012-07-10","eventid":82},{"lon":124.13,"lat":-8.51,"type":"VO","level":"Orange","name":"Eruption  Sirung","country":"Lesser Sunda Is","severity":"","from":"2012-05-12","to":"2012-05-12","eventid":162},{"lon":127.88,"lat":1.68,"type":"VO","level":"Orange","name":"Eruption  Dukono","country":"Halmahera-Indonesia","severity":"","from":"2012-02-28","to":"2012-02-28","eventid":178},{"lon":178.5,"lat":-24.3,"type":"TC","level":"Red","name":"Tropical Cyclone EVAN-12","country":"Fiji, Wallis and Futuna, Samoa","severity":"Tropical Storm (maximum wind speed of 212 km/h)","from":"2012-12-12","to":"2012-12-19","eventid":34247},{"lon":119.2,"lat":18.3,"type":"TC","level":"Red","name":"Tropical Cyclone BOPHA-12","country":"Philippines","severity":"Tropical Depression (maximum wind speed of 259 km/h)","from":"2012-11-27","to":"2012-12-09","eventid":33913},{"lon":80,"lat":12.6,"type":"TC","level":"Orange","name":"Tropical Cyclone NILAM-12","country":"India, Sri Lanka","severity":"Tropical Storm (maximum wind speed of 101 km/h)","from":"2012-10-30","to":"2012-10-31","eventid":33400},{"lon":-75.4,"lat":39.8,"type":"TC","level":"Orange","name":"Tropical Cyclone SANDY-12","country":"Cuba, Jamaica, Bahamas, United States","severity":"Hurricane/Typhoon > 74 mph (maximum wind speed of 167 km/h)","from":"2012-10-22","to":"2012-10-30","eventid":33263},{"lon":106.9,"lat":21.4,"type":"TC","level":"Red","name":"Tropical Cyclone SON-TINH-12","country":"Viet Nam","severity":"Tropical Storm (maximum wind speed of 204 km/h)","from":"2012-10-24","to":"2012-10-29","eventid":33292},{"lon":128.6,"lat":36,"type":"TC","level":"Orange","name":"Tropical Cyclone SANBA-12","country":"Korea, Republic of, Japan","severity":"Tropical Storm (maximum wind speed of 278 km/h)","from":"2012-09-11","to":"2012-09-17","eventid":32498},{"lon":126.5,"lat":34.5,"type":"TC","level":"Red","name":"Tropical Cyclone TEMBIN-12","country":"China","severity":"Tropical Storm (maximum wind speed of 212 km/h)","from":"2012-08-19","to":"2012-08-30","eventid":31997},{"lon":126.2,"lat":41.6,"type":"TC","level":"Red","name":"Tropical Cyclone BOLAVEN-12","country":"Japan","severity":"Tropical Storm (maximum wind speed of 231 km/h)","from":"2012-08-20","to":"2012-08-28","eventid":32007},{"lon":105.9,"lat":21.1,"type":"TC","level":"Red","name":"Tropical Cyclone KAI-TAK-12","country":"China","severity":"Tropical Storm (maximum wind speed of 130 km/h)","from":"2012-08-13","to":"2012-08-17","eventid":31882},{"lon":-97.8,"lat":18,"type":"TC","level":"Orange","name":"Tropical Cyclone ERNESTO-12","country":"Belize, Mexico","severity":"Tropical Depression (maximum wind speed of 138 km/h)","from":"2012-08-03","to":"2012-08-10","eventid":31651},{"lon":119.3,"lat":27,"type":"TC","level":"Orange","name":"Tropical Cyclone SAOLA-12","country":"China","severity":"Tropical Storm (maximum wind speed of 167 km/h)","from":"2012-07-28","to":"2012-08-03","eventid":31574},{"lon":119.2,"lat":35,"type":"TC","level":"Orange","name":"Tropical Cyclone DAMREY-12","country":"China","severity":"Tropical Storm (maximum wind speed of 138 km/h)","from":"2012-07-30","to":"2012-08-02","eventid":31589},{"lon":112.2,"lat":22.3,"type":"TC","level":"Red","name":"Tropical Cyclone VICENTE-12","country":"China","severity":"Hurricane/Typhoon > 74 mph (maximum wind speed of 212 km/h)","from":"2012-07-21","to":"2012-07-24","eventid":31445},{"lon":-100.3,"lat":18.1,"type":"TC","level":"Orange","name":"Tropical Cyclone CARLOTTA-12","country":"Mexico","severity":"Tropical Depression (maximum wind speed of 167 km/h)","from":"2012-06-14","to":"2012-06-17","eventid":30787},{"lon":52.6,"lat":-23.4,"type":"TC","level":"Red","name":"Tropical Cyclone GIOVANNA-12","country":"Madagascar","severity":"Tropical Depression (maximum wind speed of 231 km/h)","from":"2012-02-10","to":"2012-02-21","eventid":28199},{"lon":43.3,"lat":-31,"type":"TC","level":"Orange","name":"Tropical Cyclone FUNSO-12","country":"Mozambique","severity":"Tropical Storm (maximum wind speed of 222 km/h)","from":"2012-01-19","to":"2012-01-28","eventid":27865}]}