{"events":[{"lon":111.03,"lat":27.12,"type":"FL","level":"Orange","name":"Flood in China","country":"China","severity":"Magnitude 0 ","from":"2026-06-06","to":"2026-07-07","eventid":1103933},{"lon":63.95,"lat":32.1,"type":"FL","level":"Orange","name":"Flood in Afghanistan","country":"Afghanistan","severity":"Magnitude 0 ","from":"2026-03-25","to":"2026-04-14","eventid":1103815},{"lon":-70.53,"lat":-9.05,"type":"FL","level":"Orange","name":"Flood in Brazil","country":"Brazil","severity":"Magnitude 0 ","from":"2026-02-03","to":"2026-03-31","eventid":1103757},{"lon":37.26,"lat":6.17,"type":"FL","level":"Orange","name":"Flood in Ethiopia","country":"Ethiopia","severity":"Magnitude 0 ","from":"2026-03-09","to":"2026-03-11","eventid":1103798},{"lon":28.71,"lat":-0.56,"type":"FL","level":"Orange","name":"Flood in Democratic Republic of Congo","country":"Democratic Republic of Congo","severity":"Magnitude 0 ","from":"2026-02-11","to":"2026-03-05","eventid":1103784},{"lon":34.74,"lat":-20.16,"type":"FL","level":"Orange","name":"Flood in Mozambique","country":"Mozambique","severity":"Magnitude 0 ","from":"2025-12-22","to":"2026-01-26","eventid":1103694},{"lon":29.4,"lat":-23.47,"type":"FL","level":"Orange","name":"Flood in Mozambique, South Africa, Zimbabwe","country":"Mozambique, South Africa, Zimbabwe","severity":"Magnitude 0 ","from":"2026-01-19","to":"2026-01-19","eventid":1103735},{"lon":117.15,"lat":-8.79,"type":"FL","level":"Orange","name":"Flood in Indonesia","country":"Indonesia","severity":"Magnitude 0 ","from":"2025-11-17","to":"2026-01-03","eventid":1103633},{"lon":46.81,"lat":-19.53,"type":"DR","level":"Orange","name":"Drought in Madagascar","country":"Madagascar","severity":"Medium impact for agricultural drought in 425792 km2","from":"2025-11-21","to":"2026-07-11","eventid":1018431},{"lon":-60.78,"lat":-34.19,"type":"DR","level":"Orange","name":"Drought in Argentina, Uruguay","country":"Argentina, Uruguay","severity":"Medium impact for agricultural drought in 104014 km2","from":"2025-11-21","to":"2026-04-20","eventid":1018327},{"lon":43.9,"lat":2.05,"type":"DR","level":"Orange","name":"Drought in Kenya, Somalia","country":"Kenya, Somalia","severity":"Medium impact for agricultural drought in 124167 km2","from":"2025-05-21","to":"2026-03-30","eventid":1017863},{"lon":-8.28,"lat":40.62,"type":"WF","level":"Orange","name":"Forest fires in Portugal","country":"Portugal","severity":"Orange impact for forestfire in 19670 ha","from":"2026-07-02","to":"2026-07-08","eventid":1029260},{"lon":2.57,"lat":42.67,"type":"WF","level":"Orange","name":"Forest fires in France","country":"France","severity":"Orange impact for forestfire in 6576 ha","from":"2026-07-04","to":"2026-07-08","eventid":1029331},{"lon":-72.93,"lat":-36.79,"type":"WF","level":"Orange","name":"Forest fires in Chile","country":"Chile","severity":"Orange impact for forestfire in 27577 ha","from":"2026-01-17","to":"2026-01-25","eventid":1027016},{"lon":127.88,"lat":1.7,"type":"VO","level":"Orange","name":"Eruption  Dukono","country":"Indonesia","severity":"","from":"2026-05-08","to":"2026-05-08","eventid":1000140},{"lon":123.13,"lat":10.41,"type":"VO","level":"Orange","name":"Eruption  Kanlaon","country":"Philippines","severity":"","from":"2026-03-15","to":"2026-03-15","eventid":1000138},{"lon":120.4,"lat":28.7,"type":"TC","level":"Red","name":"Tropical Cyclone BAVI-26","country":"Guam, Northern Mariana Islands, Japan, Taiwan, China","severity":"Tropical Storm (maximum wind speed of 287 km/h)","from":"2026-07-01","to":"2026-07-11","eventid":1001279},{"lon":107.9,"lat":21.6,"type":"TC","level":"Orange","name":"Tropical Cyclone MAYSAK-26","country":"Viet Nam, China, Laos","severity":"Tropical Storm (maximum wind speed of 93 km/h)","from":"2026-07-01","to":"2026-07-04","eventid":1001281},{"lon":156.1,"lat":28.7,"type":"TC","level":"Red","name":"Tropical Cyclone SINLAKU-26","country":"Northern Mariana Islands, Guam","severity":"Tropical Storm (maximum wind speed of 287 km/h)","from":"2026-04-09","to":"2026-04-19","eventid":1001270},{"lon":41.6,"lat":-35.63,"type":"TC","level":"Red","name":"Tropical Cyclone GEZANI-26","country":"Madagascar, Mozambique","severity":"Post-tropical Depression (maximum wind speed of 211 km/h)","from":"2026-02-06","to":"2026-02-18","eventid":1001256},{"lon":54.85,"lat":-23.41,"type":"TC","level":"Orange","name":"Tropical Cyclone FYTIA-26","country":"Madagascar","severity":"Remnant Low (maximum wind speed of 179 km/h)","from":"2026-01-29","to":"2026-02-04","eventid":1001254}]}